{
"type": "FeatureCollection",
"crs": { "type": "name", "properties": { "name": "urn:ogc:def:crs:OGC:1.3:CRS84" } },
                                                                                
"features": [
{ "type": "Feature", "properties": { "producer_id": 1, "name": "Highland Fine Cheeses", "url": "http:\/\/hf-cheeses.com", "address": "Highland Fine Cheeses Limited, Blairliath Farm, Shore Road, Tain IV19 1EB", "phone": "01862 892064", "email": "highland-fine@btconnect.com", "image": "highland.png" }, "geometry": { "type": "Point", "coordinates": [ -4.02149842607806, 57.789672171749409 ] } },
{ "type": "Feature", "properties": { "producer_id": 2, "name": "Grimbister Farm", "url": "http:\/\/www.orkneyfoodanddrink.com\/grimbister-farm-cheese", "address": "Grimbister Farm Cheese,Grimbister Farm, Firth, Orkney, KW15 1TT", "phone": "01856 761318", "email": "grimbister@orknet.co.uk", "image": "grimbister.jpg" }, "geometry": { "type": "Point", "coordinates": [ -3.07487362183982, 58.993630906270965 ] } },
{ "type": "Feature", "properties": { "producer_id": 3, "name": "Connage Highland Dairy", "url": "http:\/\/www.connage.co.uk\/Home.aspx", "address": "Connage Highland Dairy, Milton of Connage, Ardersier, Inverness,  IV2 7QU", "phone": "01667 462000", "email": "info@connage.co.uk", "image": "connage.png" }, "geometry": { "type": "Point", "coordinates": [ -4.02206090717174, 57.556547730479522 ] } },
{ "type": "Feature", "properties": { "producer_id": 4, "name": "Devenick Dairy", "url": "http:\/\/www.devenickdairy.co.uk", "address": "Devenick Dairy, Bishopston Farm, Banchory-Devenick, Aberdeen, AB12 4RS", "phone": "01224 782476", "email": null, "image": "devenick.jpg" }, "geometry": { "type": "Point", "coordinates": [ -2.100655928619242, 57.102351554132099 ] } },
{ "type": "Feature", "properties": { "producer_id": 5, "name": "Cambus O'May", "url": "http:\/\/www.cambusomay.com", "address": "Cambus O'May Cheese Co, The Creamery, Ballater, Aberdeenshire AB35 5SD", "phone": "013397 53113", "email": "info@cambusomay.com", "image": "cambusomay.png" }, "geometry": { "type": "Point", "coordinates": [ -2.877059575473144, 57.152802562164617 ] } },
{ "type": "Feature", "properties": { "producer_id": 6, "name": "St.Andrew's Farmhouse Cheese Co.", "url": "http:\/\/www.standrewscheese.co.uk", "address": "Falside Farm, Anstruther, KY10 2RT", "phone": "01333 312580", "email": "info@standrewscheese.co.uk", "image": "standrews.jpg" }, "geometry": { "type": "Point", "coordinates": [ -2.718423631590052, 56.240744094458407 ] } },
{ "type": "Feature", "properties": { "producer_id": 7, "name": "H.J. Errington & Company", "url": "http:\/\/www.erringtoncheese.co.uk", "address": "Errington Cheese Ltd., Walston Breahead Farm, Carnwath, Lanark, South Lanarkshire, ML11 8NF", "phone": "01899 810257", "email": "enquiries@erringtoncheese.co.uk", "image": "errington.png" }, "geometry": { "type": "Point", "coordinates": [ -3.59368642614385, 55.650060848487527 ] } },
{ "type": "Feature", "properties": { "producer_id": 8, "name": "Loch Arthur Creamery", "url": "http:\/\/www.locharthur.org.uk\/creamery-and-farmshop\/", "address": "Loch Arthur Cremaery and Farmshop, Beeswing, Dumfries DG2 8EE", "phone": "01387 259669", "email": "shop@locharthur.org.uk", "image": "locharthur.jpg" }, "geometry": { "type": "Point", "coordinates": [ -3.791421806681258, 55.005306957335229 ] } },
{ "type": "Feature", "properties": { "producer_id": 9, "name": "Galloway Farmhouse Cheese", "url": "http:\/\/www.gallowayfarmhousecheese.co.uk", "address": "Galloway Farmhouse Cheese, Millairies Farm, Sorbie, Newton Stewart , Wigtownshire, DG8 8AL", "phone": "01988 850224", "email": null, "image": "galloway.jpg" }, "geometry": { "type": "Point", "coordinates": [ -4.460965943316596, 54.830919698490746 ] } },
{ "type": "Feature", "properties": { "producer_id": 10, "name": "Barwheys Dairy", "url": "http:\/\/www.barwheysdairy.co.uk", "address": "Barwheys Dairy, Maybole, Ayrshire KA19 7JS", "phone": "+44 (0)1655 750163", "email": "enquiries@barwheysdairy.co.uk", "image": "barwheys.jpg" }, "geometry": { "type": "Point", "coordinates": [ -4.742235373865085, 55.331508163866552 ] } },
{ "type": "Feature", "properties": { "producer_id": 11, "name": "Dunlop Dairy", "url": "http:\/\/www.dunlopdairy.co.uk", "address": "Dunlop Dairy, West Clerkland Farm, Dunlop Road, Stewarton KA3 5LP", "phone": "01560 482 494", "email": "ann@dunlopdairy.co.uk", "image": "dunlop.jpg" }, "geometry": { "type": "Point", "coordinates": [ -4.477560814872877, 55.635628710694235 ] } },
{ "type": "Feature", "properties": { "producer_id": 12, "name": "Inverloch Cheese Company", "url": "http:\/\/www.inverlochcheese.co.uk", "address": "The Creamery, 22 Kirk Street, Campbeltown, Argyll and Bute, PA28 6BN", "phone": "01586 552692", "email": "Info@inverlochcheese.com", "image": "inverloch.jpg" }, "geometry": { "type": "Point", "coordinates": [ -5.624769394825363, 55.422686282096564 ] } },
{ "type": "Feature", "properties": { "producer_id": 13, "name": "Sgriob-Ruadh Farm Dairy", "url": "http:\/\/www.isleofmullcheese.co.uk", "address": "Sgriob-ruadh Farm, Tobermory, Isle of Mull PA75 6QD", "phone": "01688 302627", "email": null, "image": "mull.jpg" }, "geometry": { "type": "Point", "coordinates": [ -6.090857881388034, 56.622686732793781 ] } }
]
}
